[{"website": "http://www.langice.com", "category_labels": [["Businesses and Services", "Refrigeration and Ice"]], "fax": "(843) 681-4208", "neighborhood": ["South West Side"], "name": "Lang Ice Company", "locality": "Chicago", "country": "us", "region": "IL", "hours_display": "Open Daily 7:00 AM-5:00 PM", "longitude": -87.713429, "category_ids": [185], "hours": {"monday": [["7:00", "17:00"]], "tuesday": [["7:00", "17:00"]], "friday": [["7:00", "17:00"]], "wednesday": [["7:00", "17:00"]], "thursday": [["7:00", "17:00"]], "sunday": [["7:00", "17:00"]], "saturday": [["7:00", "17:00"]]}, "postcode": "60629", "factual_id": "4e8e2a99-e48f-4cec-84ef-334f3f886c97", "address": "3604 W 59th St", "latitude": 41.786204, "tel": "(773) 735-5000", "email": "info@langice.com"}, {"website": "http://www.harrisicechicago.com", "category_labels": [["Businesses and Services", "Refrigeration and Ice"]], "neighborhood": ["West and Near West Side", "Lombard Tree"], "name": "Harris Ice Delivery", "locality": "Chicago", "country": "us", "region": "IL", "hours_display": "Open Daily 12:00 AM-12:00 AM", "longitude": -87.724204, "category_ids": [185], "hours": {"monday": [["00:00", "24:00"]], "tuesday": [["00:00", "24:00"]], "friday": [["00:00", "24:00"]], "wednesday": [["00:00", "24:00"]], "thursday": [["00:00", "24:00"]], "sunday": [["00:00", "24:00"]], "saturday": [["00:00", "24:00"]]}, "postcode": "60624", "factual_id": "393a02f3-9c01-41f4-b854-db9a29b000fd", "address": "3927 W 5th Ave", "latitude": 41.873237, "tel": "(773) 826-3110", "email": "harrisice1@sbcglobal.net"}, {"category_labels": [["Businesses and Services", "Refrigeration and Ice"]], "neighborhood": ["Hermosa", "Pacific Junction"], "name": "Chicago Gel Industry", "locality": "Chicago", "country": "us", "region": "IL", "hours_display": "Mon-Fri 7:00 AM-3:00 PM", "longitude": -87.723922, "category_ids": [185], "hours": {"tuesday": [["7:00", "15:00"]], "thursday": [["7:00", "15:00"]], "friday": [["7:00", "15:00"]], "wednesday": [["7:00", "15:00"]], "monday": [["7:00", "15:00"]]}, "postcode": "60647", "factual_id": "53ca4094-0103-4bee-8b2b-c428ba467584", "address": "1919 N Springfield Ave", "latitude": 41.91571, "tel": "(773) 278-6601", "email": "chicagogel@gmail.com"}, {"website": "http://www.sensisandals.com", "category_labels": [["Businesses and Services", "Refrigeration and Ice"]], "fax": "(561) 833-3365", "neighborhood": ["Near West Side", "Carpenters Addition", "West Loop"], "name": "Sensi", "locality": "Chicago", "country": "us", "region": "IL", "longitude": -87.657868, "category_ids": [185], "postcode": "60607", "factual_id": "8da8b8ce-f6d6-4683-bb1f-8e3836b1aabe", "address": "1229 W Randolph St", "latitude": 41.883993, "tel": "(312) 733-7711"}, {"category_labels": [["Businesses and Services", "Refrigeration and Ice"]], "neighborhood": ["Fulton Market", "West and Near West Side", "Carpenters Addition"], "name": "Fnternational Ice Bagging", "locality": "Chicago", "country": "us", "region": "IL", "longitude": -87.654423, "category_ids": [185], "latitude": 41.887484, "postcode": "60607", "factual_id": "121b7bee-c640-4da6-8ddb-94766bf6127f", "address": "327 N Aberdeen St", "address_extended": "Ste 150", "tel": "(312) 633-4000"}, {"category_labels": [["Businesses and Services", "Refrigeration and Ice"]], "neighborhood": ["Near West Side", "Claremont Cottages", "West and Near West Side"], "name": "Ice", "locality": "Chicago", "country": "us", "region": "IL", "longitude": -87.679406, "category_ids": [185], "postcode": "60608", "factual_id": "c7ce2662-c682-477f-bf65-5c480b21dd0e", "address": "2111 W Roosevelt Rd", "latitude": 41.866552, "tel": "(312) 243-4715"}, {"website": "http://www.novusicesystems.com/", "category_labels": [["Businesses and Services", "Refrigeration and Ice"]], "tel": "(312) 255-1000", "name": "Novus Ice Systems", "locality": "Chicago", "country": "us", "region": "IL", "longitude": -87.613243, "category_ids": [185], "postcode": "60611", "factual_id": "676807cb-e9b7-4abe-9e7d-51394d722b9d", "address": "505 N Lake Shore Dr", "latitude": 41.89182}, {"category_labels": [["Businesses and Services", "Refrigeration and Ice"]], "fax": "(949) 715-3880", "neighborhood": ["Goose Island", "Greek Town", "West and Near West Side"], "name": "Automatic Ice", "locality": "Chicago", "country": "us", "region": "IL", "longitude": -87.653133, "category_ids": [185], "postcode": "60642", "factual_id": "6d86696f-ebb1-4f2c-a61b-bb430044f740", "address": "727 N Milwaukee Ave", "latitude": 41.894971, "tel": "(312) 666-8285"}, {"website": "http://novusicesystems.com", "category_labels": [["Businesses and Services", "Refrigeration and Ice"]], "neighborhood": ["Kinzies Addition", "River North", "Streeterville"], "name": "Novus Ice Systems", "locality": "Chicago", "country": "us", "region": "IL", "longitude": -87.62399, "category_ids": [185], "latitude": 41.893723, "postcode": "60611", "factual_id": "89ef7586-4871-4f52-893e-146a6c75bab6", "address": "645 N Michigan Ave", "address_extended": "Ste 800", "tel": "(312) 255-1000"}, {"category_labels": [["Businesses and Services", "Refrigeration and Ice"]], "neighborhood": ["Near West Side", "West and Near West Side"], "name": "Ice Design Factory", "locality": "Chicago", "country": "us", "region": "IL", "longitude": -87.677601, "category_ids": [185], "postcode": "60612", "factual_id": "ff80513d-dbfa-43af-9b87-350be9eb7c66", "address": "2023 W Carroll Ave", "latitude": 41.887518, "tel": "(312) 733-0610"}, {"website": "http://www.homecityice.com", "category_labels": [["Businesses and Services", "Refrigeration and Ice"]], "neighborhood": ["West Town", "West and Near West Side"], "name": "Home City Ice", "locality": "Chicago", "country": "us", "region": "IL", "longitude": -87.680194, "category_ids": [185], "postcode": "60622", "factual_id": "16b2b3b1-4403-4256-b7a2-f8adb27d5884", "address": "2112 W Rice St", "latitude": 41.896938, "tel": "(773) 235-9323"}, {"category_labels": [["Businesses and Services", "Refrigeration and Ice"]], "neighborhood": ["Near South Side", "Mccormick Place"], "name": "Ice", "locality": "Chicago", "country": "us", "region": "IL", "longitude": -87.618586, "category_ids": [185], "postcode": "60616", "factual_id": "4f6b7db0-9b92-45af-92f5-4b72b40e9ae0", "address": "350 E Cermak Rd", "latitude": 41.853299, "tel": "(312) 225-7963"}]